City_ID,City,Lat,Lng,Max Temp,Humidity,Cloudiness,Wind Speed,Country,Date
0,fortuna,40.5982,-124.1573,12.19,76,40,5.66,US,1707081858
1,pokrovsk,48.282,37.1758,2.79,90,100,5.42,UA,1707081859
2,salinas,36.6777,-121.6555,17.29,83,75,13.38,US,1707081859
3,avarua,-21.2078,-159.775,29.03,74,20,2.57,CK,1707081859
4,sovetskiy,61.3614,63.5842,-17.28,92,97,2.24,RU,1707081860
5,khouribga,32.9333,-6.6,13.11,41,93,2.67,MA,1707081860
6,yellowknife,62.456,-114.3525,-19.77,80,20,3.09,CA,1707081626
7,invercargill,-46.4,168.35,15.57,96,79,3.13,NZ,1707081634
8,ar ruways,24.1103,52.7306,18.01,58,27,5.93,AE,1707081861
9,broome,42.2506,-75.833,6.0,51,0,3.6,US,1707081694
10,thompson,55.7435,-97.8558,-3.91,86,100,4.12,CA,1707081631
11,bethel,41.3712,-73.414,6.53,47,0,5.14,US,1707081861
12,adamstown,-25.066,-130.1015,24.99,79,98,4.5,PN,1707081862
13,uvira,-3.4067,29.1458,23.15,82,100,0.78,CD,1707081862
14,grytviken,-54.2811,-36.5092,3.22,70,14,5.63,GS,1707081862
15,atafu village,-8.5421,-172.5159,29.2,76,97,9.4,TK,1707081621
16,kharovsk,59.9642,40.1912,-9.54,98,100,1.39,RU,1707081863
17,lieksa,63.3167,30.0167,-5.56,97,95,2.84,FI,1707081863
18,yambio,4.5721,28.3955,25.69,28,69,3.35,SS,1707081863
19,edinburgh of the seven seas,-37.0676,-12.3116,16.03,76,70,8.4,SH,1707081638
20,alice springs,-23.7,133.8833,28.75,32,37,6.17,AU,1707081582
21,taksimo,56.3444,114.8794,-25.53,97,100,0.03,RU,1707081864
22,ilulissat,69.2167,-51.1,-21.99,54,7,1.54,GL,1707081626
23,nar'yan-mar,67.6713,53.087,-19.38,91,87,3.13,RU,1707081628
24,port-aux-francais,-49.35,70.2167,5.14,72,10,8.73,TF,1707081618
25,puerto ayora,-0.7393,-90.3518,27.98,90,69,4.02,EC,1707081864
26,aasiaat,68.7098,-52.8699,-31.72,88,12,2.06,GL,1707081630
27,la sarre,48.8002,-79.1996,0.05,96,100,1.13,CA,1707081575
28,west island,-12.1568,96.8225,26.99,83,100,4.63,CC,1707081865
29,kodiak,57.79,-152.4072,1.73,80,0,4.12,US,1707081632
30,waitangi,-43.9535,-176.5597,18.23,77,35,5.82,NZ,1707081630
31,jiangyan,32.5061,120.1428,0.55,94,48,5.21,CN,1707081865
32,leua,48.2156,18.6071,10.83,80,100,9.35,SK,1707081865
33,stanley,54.868,-1.6985,11.82,79,75,12.86,GB,1707081406
34,longyearbyen,78.2186,15.6401,-1.09,80,75,12.86,SJ,1707081494
35,jamestown,42.097,-79.2353,6.8,42,0,5.14,US,1707081651
36,st. john's,47.5649,-52.7093,1.66,97,100,11.83,CA,1707081631
37,kharp,66.8014,65.8081,-16.07,98,100,1.12,RU,1707081866
38,colac,-38.3333,143.5833,17.87,81,100,3.88,AU,1707081866
39,kudahuvadhoo,2.6708,72.8944,27.82,77,58,7.64,MV,1707081866
40,talnakh,69.4865,88.3972,-18.22,97,100,3.09,RU,1707081866
41,lihue,21.9789,-159.3672,24.58,66,40,9.77,US,1707081626
42,flying fish cove,-10.4217,105.6791,24.82,100,100,3.6,CX,1707081667
43,kismayo,-0.3582,42.5454,27.09,84,62,6.57,SO,1707081867
44,newman,37.3138,-121.0208,15.19,89,100,7.15,US,1707081627
45,lukolela,-1.0605,17.1821,25.45,63,83,1.46,CD,1707081867
46,saldanha,-33.0117,17.9442,21.03,84,100,2.37,ZA,1707081669
47,kasongo-lunda,-6.4667,16.8167,22.14,97,100,0.61,CD,1707081867
48,osorno,-40.5667,-73.15,31.81,16,0,4.12,CL,1707081867
49,ust-nera,64.5667,143.2,-30.8,96,97,1.85,RU,1707081629
50,blackmans bay,-43.0167,147.3167,13.74,94,29,1.34,AU,1707081632
51,port mathurin,-19.6833,63.4167,25.91,72,86,6.44,MU,1707081655
52,olonkinbyen,70.9221,-8.7187,-5.7,76,100,11.11,SJ,1707081631
53,puerto natales,-51.7236,-72.4875,25.25,31,75,11.83,CL,1707081666
54,acajutla,13.5928,-89.8275,29.27,65,35,6.29,SV,1707081868
55,ballina,-28.8667,153.5667,26.55,68,73,3.4,AU,1707081868
56,playas,-2.6333,-80.3833,27.04,74,97,4.9,EC,1707081868
57,haiku-pauwela,20.9219,-156.3051,23.47,67,40,8.23,US,1707081868
58,namibe,-15.1961,12.1522,26.07,80,97,2.34,AO,1707081673
59,keningau,5.3378,116.1602,21.67,99,97,0.81,MY,1707081869
60,laguna,38.421,-121.4238,16.1,75,40,18.52,US,1707081699
61,taltal,-25.4,-70.4833,23.14,74,15,1.09,CL,1707081869
62,lerwick,60.1545,-1.1494,3.0,60,100,9.88,GB,1707081707
63,bilibino,68.0546,166.4372,-31.49,82,14,2.32,RU,1707081623
64,sao joao da barra,-21.6403,-41.0511,28.05,87,100,4.23,BR,1707081869
65,isangel,-19.55,169.2667,28.06,94,40,4.12,VU,1707081643
66,luderitz,-26.6481,15.1594,19.12,85,5,3.85,NA,1707081666
67,albany,42.6001,-73.9662,4.76,53,1,0.45,US,1707081429
68,chibougamau,49.9168,-74.3659,-6.21,79,0,1.03,CA,1707081638
69,east london,-33.0153,27.9116,24.52,79,100,5.9,ZA,1707081655
70,hawaiian paradise park,19.5933,-154.9731,23.35,82,100,3.6,US,1707081646
71,bredasdorp,-34.5322,20.0403,22.24,84,46,1.88,ZA,1707081655
72,bomi,7.2461,-11.5258,25.56,83,82,1.57,SL,1707081870
73,murakami,38.2333,139.4833,4.94,66,99,2.29,JP,1707081871
74,lagoa vermelha,-28.2086,-51.5258,24.4,79,51,1.35,BR,1707081871
75,whitehorse,60.7161,-135.0538,-24.57,64,75,1.54,CA,1707081429
76,fenghua,29.6563,121.4064,3.94,75,75,6.0,CN,1707081871
77,udachny,66.4167,112.4,-31.66,96,67,2.34,RU,1707081635
78,goderich,43.7501,-81.7165,1.18,86,6,3.09,CA,1707081871
79,ancud,-41.8697,-73.8203,17.61,65,20,4.07,CL,1707081517
80,arawa,-6.2132,155.5367,27.06,85,100,0.67,PG,1707081871
81,helena valley southeast,46.6153,-111.9216,0.07,84,100,1.54,US,1707081872
82,kangding,30.0513,101.9603,0.16,64,27,2.31,CN,1707081718
83,kharan,28.5833,65.4167,11.53,35,0,3.32,PK,1707081872
84,santa terezinha,-29.9002,-50.0904,24.31,88,69,2.39,BR,1707081872
85,conde,-7.2597,-34.9075,28.7,74,20,5.66,BR,1707081634
86,tiksi,71.6872,128.8694,-33.46,100,95,0.45,RU,1707081624
87,bac lieu,9.285,105.7244,24.43,89,24,1.51,VN,1707081872
88,bria,6.5423,21.9863,25.24,25,58,2.37,CF,1707081872
89,polyarnyy,69.1989,33.4478,-11.67,85,100,7.03,RU,1707081719
90,kununurra,-15.7667,128.7333,26.99,94,68,2.57,AU,1707081623
91,utrik,11.2278,169.8474,25.91,73,58,7.18,MH,1707081653
92,trincomalee,8.5711,81.2335,26.52,82,88,5.58,LK,1707081873
93,port alfred,-33.5906,26.891,23.34,84,98,3.78,ZA,1707081672
94,marshfield,44.6689,-90.1718,11.38,35,0,1.54,US,1707081590
95,yeppoon,-23.1333,150.7333,25.88,66,84,2.63,AU,1707081873
96,tamanrasset,22.785,5.5228,10.89,18,0,6.13,DZ,1707081873
97,kolda,12.8833,-14.95,27.17,50,0,0.0,SN,1707081874
98,hobyo,5.3505,48.5268,25.63,78,42,7.86,SO,1707081666
99,papatowai,-46.5619,169.4708,14.92,95,99,2.97,NZ,1707081656
100,pont rouge,48.8833,-72.0825,-6.84,94,94,0.89,CA,1707081874
101,magistral'nyy,56.1725,107.4458,-20.35,100,85,1.53,RU,1707081696
102,sitka,57.0531,-135.33,3.94,93,100,3.6,US,1707081694
103,sinabang,2.4803,96.3801,26.69,81,74,1.09,ID,1707081499
104,ad dawadimi,24.5077,44.3924,11.64,29,88,7.67,SA,1707081532
105,zdvinsk,54.7021,78.661,-6.67,89,100,6.92,RU,1707081875
106,kidal,18.4411,1.4078,18.23,11,0,5.3,ML,1707081660
107,lebu,-37.6167,-73.65,17.74,70,0,5.21,CL,1707081506
108,qaqortoq,60.7167,-46.0333,-21.78,68,0,2.73,GL,1707081638
109,vadso,70.0744,29.7487,-5.91,79,75,8.23,NO,1707081671
110,gereida,11.2811,25.1414,22.29,16,9,6.67,SD,1707081875
111,majagual,8.5389,-74.6204,32.52,58,84,1.47,CO,1707081875
112,vorgashor,67.5833,63.95,-16.45,92,100,0.43,RU,1707081660
113,bandundu,-3.3167,17.3667,26.15,73,97,1.82,CD,1707081876
114,berezovyy,51.6667,135.7,-23.15,95,5,1.35,RU,1707081876
115,santa cruz,-17.8,-63.1667,34.7,43,40,6.17,BO,1707081704
116,tindouf,27.6711,-8.1474,13.71,35,40,5.13,DZ,1707081679
117,kuala belait,4.5833,114.1833,24.09,95,100,1.83,BN,1707081876
118,vilyuchinsk,52.9306,158.4028,-12.82,78,98,4.01,RU,1707081676
119,takehara,34.3383,132.9167,4.02,100,75,3.6,JP,1707081743
120,badagry,6.4167,2.8833,25.68,83,65,3.68,NG,1707081876
121,crane,31.3974,-102.3501,16.73,14,0,12.33,US,1707081668
122,nova vicosa,-17.8919,-39.3719,26.57,77,27,3.47,BR,1707081701
123,horta,38.5333,-28.6333,16.8,94,75,8.05,PT,1707081877
124,lukhovka,54.1484,45.2573,-0.09,88,100,7.6,RU,1707081877
125,lazaro cardenas,17.9583,-102.2,27.28,56,0,5.85,MX,1707081730
126,lorengau,-2.0226,147.2712,28.39,79,98,1.85,PG,1707081702
127,sile,41.1754,29.6133,10.87,62,46,0.89,TR,1707081877
128,puerto baquerizo moreno,-0.9,-89.6,27.55,78,75,4.12,EC,1707081877
129,keflavik,64.0049,-22.5624,-4.76,74,100,6.17,IS,1707081626
130,bathsheba,13.2167,-59.5167,27.34,78,20,4.63,BB,1707081878
131,zeya,53.75,127.2667,-28.06,99,56,1.03,RU,1707081699
132,long beach,33.767,-118.1892,17.36,82,100,8.75,US,1707081619
133,acarau,-2.8856,-40.12,28.13,76,62,8.55,BR,1707081878
134,machico,32.7,-16.7667,20.35,81,40,5.14,PT,1707081706
135,praia da vitoria,38.7333,-27.0667,17.64,94,75,5.66,PT,1707081636
136,shitanjing,39.2342,106.3439,-6.25,74,19,2.52,CN,1707081878
137,neiafu,-18.65,-173.9833,29.38,84,75,4.12,TO,1707081878
138,anadyr,64.75,177.4833,-16.72,71,100,8.0,RU,1707081638
139,cape coast,5.1053,-1.2466,26.81,84,49,3.06,GH,1707081879
140,alakurtti,66.9672,30.3491,-10.7,93,100,4.56,RU,1707081879
141,wailua homesteads,22.0669,-159.378,24.24,67,40,9.77,US,1707081632
142,tura,25.5198,90.2201,13.14,43,34,1.56,IN,1707081665
143,klaksvik,62.2266,-6.589,0.51,65,96,4.65,FO,1707081879
144,colonia,50.9333,6.95,11.57,87,75,9.26,DE,1707081452
145,jutai,-5.1833,-68.9,24.92,93,100,1.19,BR,1707081879
146,muncar,-8.4333,114.3333,24.11,93,99,2.2,ID,1707081880
147,nemuro,43.3236,145.575,-7.01,72,19,6.09,JP,1707081880
148,paithan,19.4833,75.3833,20.82,35,0,2.08,IN,1707081880
149,ushuaia,-54.8,-68.3,15.81,67,75,2.06,AR,1707081625
150,solnechnyy,50.7214,136.6319,-27.21,98,23,1.45,RU,1707081677
151,itanhem,-17.1664,-40.33,26.18,73,94,3.5,BR,1707081880
152,enewetak,11.3474,162.3373,26.56,75,100,9.49,MH,1707081636
153,kralendijk,12.15,-68.2667,29.99,74,40,5.14,BQ,1707081760
154,ixtapa,20.7,-105.2,25.68,57,0,5.14,MX,1707081699
155,tolanaro,-25.0319,46.9987,24.04,94,75,8.23,MG,1707081697
156,al ghayzah,16.2079,52.176,23.68,66,3,2.02,YE,1707081881
157,kristiansund,63.1115,7.732,0.03,93,75,1.54,NO,1707081881
158,ta`u,-14.2336,-169.5144,27.25,90,100,13.98,AS,1707081881
159,acapulco de juarez,16.8634,-99.8901,28.9,51,0,7.24,MX,1707081810
160,coahuayana de hidalgo,18.7,-103.6583,29.08,42,0,3.28,MX,1707081881
161,punta arenas,-53.15,-70.9167,22.06,49,75,7.72,CL,1707081673
162,kapuskasing,49.4169,-82.4331,6.05,60,20,2.57,CA,1707081645
163,pisco,-13.7,-76.2167,28.03,61,0,6.69,PE,1707081669
164,lata,40.1629,-8.3327,11.07,81,100,0.73,PT,1707081882
165,castillos,-34.1667,-53.8333,21.77,57,6,5.5,UY,1707081882
166,pierre,44.3683,-100.351,2.7,95,100,1.54,US,1707081882
167,cockburn town,21.4612,-71.1419,24.67,77,55,5.92,TC,1707081882
168,serhetabat,35.2799,62.3438,4.33,44,15,2.88,TM,1707081882
169,khandyga,62.6667,135.6,-43.83,100,72,0.68,RU,1707081641
170,monywa,22.1167,95.1333,17.71,49,4,2.62,MM,1707081883
171,kerikeri,-35.2268,173.9474,19.39,75,1,0.89,NZ,1707081883
172,ghanzi,-21.5667,21.7833,24.58,49,25,1.79,BW,1707081883
173,dryden,49.7833,-92.7503,1.16,100,100,1.54,CA,1707081883
174,satuek,15.297,103.2919,27.26,51,3,2.1,TH,1707081883
175,selfoss,63.9331,-20.9971,-13.31,82,14,4.34,IS,1707081883
176,ebon,4.582,168.6964,28.24,69,100,9.27,MH,1707081721
177,mount isa,-20.7333,139.5,24.87,73,35,3.09,AU,1707081662
178,noyabrsk,63.1994,75.4507,-22.09,100,100,2.24,RU,1707081633
179,puerto aysen,-45.4,-72.7,21.98,56,6,2.63,CL,1707081806
180,arno,60.1167,18.6333,-0.12,77,2,4.74,SE,1707081884
181,puerto carreno,6.189,-67.4859,31.32,58,100,1.86,CO,1707081884
182,hammerfest,70.6634,23.6821,-3.75,74,40,3.09,NO,1707081717
183,mont-dore,-22.2833,166.5833,28.33,99,100,4.26,NC,1707081884
184,saipan,15.1355,145.701,26.39,69,40,8.75,MP,1707081643
185,ajaccio,42.0,8.9167,8.03,91,0,2.06,FR,1707081864
186,richards bay,-28.783,32.0377,23.02,89,79,2.41,ZA,1707081639
187,balqash,46.8481,74.995,-14.16,96,100,2.54,KZ,1707081884
188,xapuri,-10.6517,-68.5044,31.52,55,93,1.17,BR,1707081885
189,puerto lempira,15.2667,-83.7667,30.08,70,20,4.12,HN,1707081885
190,changji,44.0167,87.3167,-13.56,85,75,0.0,CN,1707081885
191,banda aceh,5.5577,95.3222,25.26,86,71,4.49,ID,1707081718
192,port elizabeth,-33.918,25.5701,21.72,95,0,2.06,ZA,1707081600
193,nzerekore,7.7562,-8.8179,24.53,23,93,1.5,GN,1707081885
194,kingston,17.997,-76.7936,29.0,74,40,4.12,JM,1707081539
195,al muwayh,22.4333,41.7583,15.7,30,75,3.02,SA,1707081885
196,cooper's town,26.8667,-77.5167,20.62,84,100,8.64,BS,1707081885
197,baise city,23.8997,106.6133,17.97,99,100,1.78,CN,1707081886
198,necochea,-38.5473,-58.7368,19.91,52,11,7.88,AR,1707081886
199,visakhapatnam,17.69,83.2093,22.94,100,20,1.03,IN,1707081886
200,sar-e pul,35.8333,66.1667,-2.63,54,4,3.63,AF,1707081886
201,paita,-5.0892,-81.1144,26.06,74,98,5.69,PE,1707081643
202,saurimo,-9.6608,20.3916,18.38,91,99,1.6,AO,1707081886
203,tosontsengel,48.7567,98.2839,-28.01,100,100,0.22,MN,1707081886
204,murzuq,25.9155,13.9184,11.71,44,0,4.16,LY,1707081730
205,iqaluit,63.7506,-68.5145,-20.15,77,100,3.6,CA,1707081618
206,georgetown,5.4112,100.3354,26.96,86,20,1.03,MY,1707081475
207,freetown,8.484,-13.2299,27.84,74,40,5.14,SL,1707081887
208,berdigestyakh,62.0989,126.6992,-35.47,100,92,1.02,RU,1707081633
209,hermanus,-34.4187,19.2345,21.56,88,4,0.69,ZA,1707081632
210,gadzhiyevo,69.2551,33.3362,-11.87,85,100,7.09,RU,1707081887
211,tanjung pandan,-2.75,107.65,25.92,83,96,3.27,ID,1707081887
212,presque isle,46.6811,-68.0159,-3.76,60,0,8.23,US,1707081669
213,ribeira grande,38.5167,-28.7,17.22,94,75,8.05,PT,1707081643
214,muroto-misakicho,33.2833,134.15,9.36,91,100,10.56,JP,1707081888
215,puerto deseado,-47.7503,-65.8938,27.96,32,93,12.14,AR,1707081678
216,san antonio de pale,-1.4014,5.6325,27.79,80,26,2.33,GQ,1707081495
217,anna regina,7.2644,-58.5077,27.59,78,99,4.08,GY,1707081888
218,taulaga,-11.0553,-171.0883,29.23,77,100,11.07,AS,1707081888
219,irtyshsk,53.3333,75.4572,-5.87,87,100,7.31,KZ,1707081888
220,shanhecun,44.7,127.2,-26.43,100,75,1.58,CN,1707081888
221,ola,59.5833,151.2833,-23.2,85,22,4.53,RU,1707081646
222,rio grande,-32.035,-52.0986,28.06,85,49,6.88,BR,1707081869
223,dudinka,69.4058,86.1778,-17.99,96,99,4.7,RU,1707081618
224,tazovsky,67.4667,78.7,-14.3,96,100,3.27,RU,1707081641
225,guiuan,11.0333,125.7247,26.2,82,16,4.6,PH,1707081889
226,prabumulih,-3.45,104.25,22.75,98,100,0.28,ID,1707081889
227,remire-montjoly,4.9167,-52.2667,29.02,79,75,6.69,GF,1707081635
228,margaret river,-33.95,115.0667,13.05,78,59,2.93,AU,1707081623
229,tarakan,3.3,117.6333,24.99,89,100,2.72,ID,1707081615
230,touros,-5.1989,-35.4608,27.66,71,2,6.73,BR,1707081889
231,rupert,42.6191,-113.6772,5.97,39,0,2.57,US,1707081889
232,urumqi,43.801,87.6005,-15.47,85,75,0.0,CN,1707081890
233,al khums,32.6486,14.2619,14.91,76,5,5.82,LY,1707081890
234,sao gabriel da cachoeira,-0.1303,-67.0892,26.7,93,100,1.19,BR,1707081890
235,rawson,-43.3002,-65.1023,32.84,15,15,13.76,AR,1707081704
236,at taj,24.2049,23.2857,10.38,43,1,3.76,LY,1707081691
237,petropavlovsk-kamchatsky,53.0452,158.6483,-13.64,81,20,3.13,RU,1707081677
238,cotonou,6.3654,2.4183,26.85,79,49,4.49,BJ,1707081890
239,la passe,45.5549,-0.8967,8.13,90,97,2.34,FR,1707081640
240,campo verde,-20.4167,-54.0667,26.41,60,100,2.75,BR,1707081890
241,vallenar,-28.5708,-70.7581,21.99,41,79,4.06,CL,1707081891
242,ulladulla,-35.35,150.4667,23.2,77,100,2.56,AU,1707081672
243,arakli,40.9385,40.0584,9.05,60,100,2.05,TR,1707081891
244,road town,18.4167,-64.6167,27.05,69,20,2.57,VG,1707081891
245,sanctuary point,-35.1114,150.629,25.97,82,100,1.78,AU,1707081891
246,college,64.8569,-147.8028,-19.0,72,75,0.0,US,1707081639
247,gomoh,23.8667,86.1667,18.0,43,44,2.42,IN,1707081891
248,kalmunai,7.4167,81.8167,25.22,87,85,1.73,LK,1707081891
249,vernon,50.2581,-119.2691,3.12,89,100,2.06,CA,1707081618
250,kemi,65.8596,24.8228,-6.13,93,100,2.06,FI,1707081892
251,hamilton,39.1834,-84.5333,13.69,47,0,6.69,US,1707081375
252,zhezqazghan,47.7833,67.7667,-5.02,97,100,4.14,KZ,1707081892
253,menaka,15.9182,2.4022,21.06,10,15,5.9,ML,1707081892
254,fuerte olimpo,-21.0415,-57.8738,30.86,44,95,2.82,PY,1707081892
255,ewo,-0.8725,14.8206,26.88,63,99,1.74,CG,1707081892
256,san patricio,28.017,-97.5169,25.05,35,0,10.32,US,1707081663
257,kulunda,52.566,78.9385,-5.6,91,100,5.49,RU,1707081892
258,aparecida do taboado,-20.0867,-51.0936,26.7,54,96,4.86,BR,1707081893
259,qinzhou,21.95,108.6167,14.43,82,100,4.42,CN,1707081893
260,hastings,50.8552,0.5729,11.0,46,93,10.52,GB,1707081893
261,happy valley-goose bay,53.3168,-60.3315,-19.83,71,20,1.03,CA,1707081663
262,carnarvon,-24.8667,113.6333,22.8,57,1,10.24,AU,1707081700
263,karhal,27.0003,78.9414,15.32,97,100,1.39,IN,1707081893
264,hithadhoo,-0.6,73.0833,28.25,78,67,5.82,MV,1707081623
265,port-vila,-17.7338,168.3219,27.78,89,75,0.51,VU,1707081893
266,alofi,-19.0595,-169.9187,28.94,79,100,5.66,NU,1707081708
267,mersa matruh,31.3525,27.2453,13.95,64,0,4.19,EG,1707081894
268,cururupu,-1.8283,-44.8683,27.23,80,11,2.4,BR,1707081894
269,scottburgh,-30.2867,30.7532,23.7,91,100,4.43,ZA,1707081894
270,weno,7.4515,151.8468,27.48,85,99,10.89,FM,1707081681
271,cannonvale,-20.2833,148.7,28.66,66,100,2.54,AU,1707081894
272,andovoranto,-18.95,49.1,24.47,79,100,1.3,MG,1707081894
273,mermoz boabab,14.7065,-17.4758,25.31,60,0,3.09,SN,1707081694
274,thunder bay,48.4001,-89.3168,2.99,80,20,3.6,CA,1707081894
275,ploneour-lanvern,47.9,-4.2833,9.18,87,100,1.54,FR,1707081895
276,santa ana,33.7456,-117.8678,18.22,64,75,6.69,US,1707081895
277,harlan,41.653,-95.3255,7.75,48,100,4.79,US,1707081895
278,key west,24.5557,-81.7826,24.44,80,0,4.63,US,1707081895
279,port hedland,-20.3167,118.5667,27.03,89,100,6.17,AU,1707081895
280,rabaul,-4.1967,152.1721,26.95,81,100,1.89,PG,1707081895
281,roma,43.2128,-75.4557,4.9,60,0,3.09,US,1707081666
282,kavieng,-2.5744,150.7967,28.66,77,96,2.58,PG,1707081709
283,broadstairs,51.3591,1.4394,10.98,81,100,5.36,GB,1707081896
284,holualoa,19.6228,-155.9522,24.2,69,75,3.6,US,1707081721
285,tateyama,34.9833,139.8667,6.72,72,100,4.95,JP,1707081745
286,afaahiti,-17.75,-149.2833,29.93,85,99,6.84,PF,1707081706
287,la cocha,-27.7773,-65.5704,34.25,24,24,5.5,AR,1707081896
288,songjiang,31.036,121.2146,2.25,83,100,6.69,CN,1707081896
289,calderitas,18.55,-88.25,32.06,55,40,0.0,MX,1707081896
290,mirnyy,62.5353,113.9611,-29.87,75,100,0.89,RU,1707081629
291,nuuk,64.1835,-51.7216,-10.66,62,100,6.17,GL,1707081650
292,luang namtha,20.9497,101.4011,13.71,63,0,0.45,LA,1707081897
293,columbia falls,48.3725,-114.1815,0.63,88,100,2.57,US,1707081897
294,eydhafushi,5.1033,73.0708,27.56,77,84,4.76,MV,1707081662
295,pembroke,45.8168,-77.1162,0.1,77,100,1.14,CA,1707081897
296,lompoc,34.6391,-120.4579,13.66,84,100,12.86,US,1707081684
297,carutapera,-1.195,-46.02,27.53,77,18,3.88,BR,1707081701
298,myeik,12.4333,98.6,23.65,83,12,2.24,MM,1707081897
299,okotoks,50.7289,-113.9828,-3.28,91,100,1.06,CA,1707081399
300,saint-philippe,-21.3585,55.7679,21.77,73,43,3.21,RE,1707081695
301,withernsea,53.7311,0.0335,12.99,77,100,12.67,GB,1707081898
302,malakal,9.5334,31.6605,25.35,19,27,2.34,SS,1707081898
303,ardakan,32.31,54.0175,6.21,24,0,2.43,IR,1707081898
304,sisimiut,66.9395,-53.6735,-20.83,95,97,3.26,GL,1707081668
305,salekhard,66.53,66.6019,-15.98,97,100,2.41,RU,1707081898
306,tralee,52.2704,-9.7026,10.26,89,98,5.36,IE,1707081639
307,banyo,6.75,11.8167,21.81,26,29,1.68,CM,1707081898
308,barcelos,41.5388,-8.6151,14.95,85,96,1.31,PT,1707081898
309,mount gambier,-37.8333,140.7667,14.76,69,60,3.24,AU,1707081632
310,palikir - national government center,6.9248,158.1611,27.41,78,100,7.72,FM,1707081691
311,pucheng,27.9233,118.5333,4.36,94,90,1.98,CN,1707081899
312,badger,64.8,-147.5333,-19.05,71,100,0.0,US,1707081662
313,constantia,44.1833,28.65,5.39,81,100,5.35,RO,1707081615
314,iskateley,67.6803,53.1512,-19.43,91,90,3.13,RU,1707081659
315,seymour,38.9592,-85.8903,13.34,43,89,1.79,US,1707081644
316,okha,53.5739,142.9478,-23.06,93,15,5.71,RU,1707081899
317,chiscani,45.1833,27.9333,8.5,64,91,4.94,RO,1707081899
318,shelby,35.2001,-89.8668,9.52,95,100,3.6,US,1707081900
319,klyuchi,52.2667,79.1667,-5.55,91,100,4.55,RU,1707081645
320,dolores,-36.3132,-57.6792,23.04,46,11,7.91,AR,1707081900
321,coquimbo,-29.9533,-71.3436,23.85,60,75,4.12,CL,1707081667
322,la ronge,55.1001,-105.2842,-7.86,62,100,2.06,CA,1707081900
323,mount pearl,47.5166,-52.7813,1.19,97,100,11.83,CA,1707081720
324,biasca,46.3597,8.9697,13.44,57,18,4.48,CH,1707081901
325,broken hill,-31.95,141.4333,22.99,76,100,10.7,AU,1707081619
326,tuy hoa,13.0833,109.3,21.8,94,60,1.43,VN,1707081901
327,vordingborg,55.008,11.9106,6.12,100,100,10.67,DK,1707081901
328,al kharijah,25.4514,30.5464,10.52,32,0,2.73,EG,1707081664
329,san jeronimo de juarez,17.1333,-100.4667,29.66,46,0,5.48,MX,1707081901
330,susuman,62.7833,148.1667,-28.9,99,100,1.34,RU,1707081698
331,zhangjiakou,40.81,114.8794,-6.62,96,100,0.42,CN,1707081901
332,wundanyi,-3.4019,38.364,18.32,84,99,1.23,KE,1707081902
333,harper,4.375,-7.7169,27.76,78,99,3.57,LR,1707081659
334,karratha,-20.7377,116.8463,30.14,41,54,5.18,AU,1707081686
335,sambava,-14.2667,50.1667,25.26,89,90,3.6,MG,1707081902
336,waingapu,-9.6567,120.2641,26.16,85,100,3.71,ID,1707081902
337,mahdia,35.5047,11.0622,12.97,58,1,2.13,TN,1707081902
338,cabedelo,-6.9811,-34.8339,29.37,71,0,5.89,BR,1707081902
339,jeddah,21.5169,39.2192,19.92,40,0,3.6,SA,1707081903
340,bhiwani,28.7833,76.1333,12.32,97,7,2.31,IN,1707081903
341,butembo,0.15,29.2833,16.88,69,79,1.06,CD,1707081673
342,yulinshi,38.2906,109.7494,-7.59,98,50,1.05,CN,1707081903
343,manta,-0.95,-80.7333,29.88,83,20,7.2,EC,1707081743
344,santa elena de uairen,4.6167,-61.1333,30.48,34,86,1.76,VE,1707081903
345,port blair,11.6667,92.75,26.02,78,49,1.03,IN,1707081703
346,san buenaventura,27.0833,-101.5333,26.93,9,0,9.86,MX,1707081903
347,makokou,0.5738,12.8642,24.46,73,75,1.31,GA,1707081904
348,boden,65.8252,21.6886,-5.0,96,94,2.57,SE,1707081904
349,peniche,39.3558,-9.3811,14.14,86,100,2.06,PT,1707081904
350,vozhega,60.4725,40.2213,-7.94,95,100,2.68,RU,1707081904
351,inhambane,-23.865,35.3833,25.02,87,22,2.94,MZ,1707081721
352,kalaleh,37.3807,55.4916,3.78,75,0,3.09,IR,1707081643
353,sinmak,38.4167,126.2333,0.28,72,100,2.99,KP,1707081904
354,sana,15.3547,44.2067,16.06,55,7,0.25,YE,1707081904
355,nabire,-3.3667,135.4833,24.82,93,90,1.33,ID,1707081654
356,la'ie,21.6477,-157.9253,24.98,66,91,8.05,US,1707081905
357,latham,37.5361,-96.642,6.78,94,100,7.73,US,1707081905
358,kurmuk,10.55,34.2833,23.73,33,50,1.67,SD,1707081905
359,fort st. john,56.2499,-120.8529,-1.06,47,20,1.54,CA,1707081664
360,ko pha ngan,9.7578,100.0291,24.61,77,59,2.36,TH,1707081905
361,kirensk,57.7853,108.1119,-16.33,98,100,1.58,RU,1707081905
362,bam,29.106,58.357,7.27,33,0,1.17,IR,1707081906
363,arraial do cabo,-22.9661,-42.0278,26.98,83,75,5.14,BR,1707081713
364,tionk essil,12.7856,-16.5217,26.03,30,2,4.26,SN,1707081676
365,blythe,33.6103,-114.5964,19.25,39,0,5.78,US,1707081906
366,yorkton,51.2167,-102.4677,0.91,100,100,4.12,CA,1707081906
367,fitzgerald,31.7149,-83.2526,12.97,100,100,4.63,US,1707081906
368,adoni,15.6333,77.2833,23.1,62,0,4.01,IN,1707081906
369,canatlan,24.5167,-104.7833,22.1,10,0,3.75,MX,1707081906
370,kisangani,0.5167,25.2,26.88,44,75,1.5,CD,1707081906
371,aioun,16.6614,-9.6149,23.05,7,67,5.53,MR,1707081671
372,beitbridge,-22.2167,30.0,28.29,42,61,4.46,ZW,1707081907
373,centerville,39.6284,-84.1594,12.26,50,0,5.14,US,1707081725
374,taro,-8.3862,115.28,24.0,95,100,0.81,ID,1707081907
375,condom,43.9167,0.3333,8.14,79,29,0.51,FR,1707081907
376,kota kinabalu,5.9749,116.0724,24.93,94,20,1.03,MY,1707081907
377,booue,-0.0921,11.9385,25.37,80,93,0.92,GA,1707081907
378,oodweyne,9.4092,45.064,19.27,61,41,5.26,SO,1707081907
379,saint-pierre,-21.3393,55.4781,21.82,78,0,2.57,RE,1707081908
380,port lincoln,-34.7333,135.8667,17.25,62,99,7.46,AU,1707081701
381,phan rang-thap cham,11.5667,108.9833,21.95,92,17,1.79,VN,1707081908
382,villa ojo de agua,-29.5,-63.6938,35.03,26,29,6.43,AR,1707081908
383,jayapura,-2.5333,140.7,26.66,92,100,2.17,ID,1707081908
384,brookings,44.3114,-96.7984,3.43,87,100,3.09,US,1707081695
385,ashti,19.3833,76.2333,23.9,33,0,2.23,IN,1707081908
386,semera,11.501,41.201,24.1,65,94,5.86,ET,1707081908
387,mejit,10.2753,170.8646,26.18,79,69,8.16,MH,1707081676
388,lodwar,3.1191,35.5973,30.03,45,96,4.67,KE,1707081909
389,geraldton,-28.7667,114.6,14.23,82,16,3.09,AU,1707081669
390,hasaki,35.7333,140.8333,1.27,61,100,3.74,JP,1707081642
391,hotan,37.0997,79.9269,-2.57,76,100,2.05,CN,1707081691
392,garoowe,8.4054,48.4845,20.96,77,42,7.05,SO,1707081909
393,benguela,-12.5763,13.4055,27.99,74,97,1.08,AO,1707081657
394,fraserburgh,57.6874,-2.0184,6.91,88,100,6.43,GB,1707081909
395,wynyard,-41.0,145.7167,17.58,76,77,4.45,AU,1707081715
396,stephenville,32.2207,-98.2023,18.07,49,100,6.17,US,1707081421
397,batyrevo,55.0675,47.6111,-1.67,89,82,6.27,RU,1707081910
398,oborniki,52.6474,16.8141,7.31,77,100,9.57,PL,1707081910
399,itoman,26.1247,127.6694,22.43,91,75,9.77,JP,1707081910
400,lakatoro,-16.0999,167.4164,28.89,80,92,1.43,VU,1707081910
401,arauco,-37.2463,-73.3175,22.96,40,1,4.9,CL,1707081910
402,egilsstadir,65.2653,-14.3948,-9.05,86,40,2.06,IS,1707081879
403,cabo san lucas,22.8909,-109.9124,25.34,50,0,4.47,MX,1707081404
404,nang rong,14.6377,102.7914,25.12,62,11,1.95,TH,1707081910
405,lincoln city,44.9582,-124.0179,13.31,58,100,3.58,US,1707081811
406,puerto montt,-41.4698,-72.9447,25.46,29,0,3.09,CL,1707081911
407,ocean city,39.2776,-74.5746,7.88,65,0,2.24,US,1707081911
408,riacho de santana,-13.6092,-42.9389,27.56,50,37,1.41,BR,1707081911
409,aral,40.5156,81.2636,-2.31,55,82,0.76,CN,1707081911
410,charcas,23.1333,-101.1167,18.91,12,0,9.76,MX,1707081911
411,walvis bay,-22.9575,14.5053,20.53,83,100,0.0,NA,1707081886
412,makushino,55.2103,67.2442,-6.51,93,98,5.74,RU,1707081911
413,vila franca do campo,37.7167,-25.4333,18.27,99,12,3.31,PT,1707081708
414,that phanom,16.9364,104.7104,23.73,72,0,1.41,TH,1707081912
415,ypsilanti,42.2412,-83.613,9.52,39,0,2.57,US,1707081394
416,qamdo,31.1667,97.2333,-4.87,37,100,1.97,CN,1707081912
417,balikpapan,-1.2675,116.8289,24.55,100,20,2.06,ID,1707081912
418,pasuquin,18.3328,120.6177,22.97,94,20,0.51,PH,1707081797
419,tadine,-21.55,167.8833,26.83,87,100,7.98,NC,1707081683
420,kimry,56.8667,37.35,0.55,98,100,1.34,RU,1707081912
421,tsiombe,-25.3,45.4833,23.77,89,100,2.32,MG,1707081913
422,jumla,29.2747,82.1838,-1.58,81,5,2.52,NP,1707081913
423,darwin,-12.4611,130.8418,27.99,85,20,4.63,AU,1707081913
424,goundam,16.4145,-3.6708,21.78,8,29,5.49,ML,1707081913
425,port-gentil,-0.7193,8.7815,28.21,80,100,4.85,GA,1707081913
426,east independence,39.0956,-94.3552,7.98,77,20,6.17,US,1707081913
427,revda,56.801,59.9303,-18.35,100,92,1.47,RU,1707081913
428,aykhal,66.0,111.5,-29.21,97,83,3.18,RU,1707081630
429,nguigmi,14.2495,13.1092,20.11,21,5,6.31,NE,1707081714
430,point pedro,9.8167,80.2333,26.68,70,100,5.03,LK,1707081914
431,bovalino,38.149,16.174,15.19,73,0,3.56,IT,1707081914
432,waddan,29.1614,16.139,11.19,56,6,2.36,LY,1707081914
433,torghay,49.6339,63.4981,-2.55,94,96,7.86,KZ,1707081914
434,labytnangi,66.6572,66.4183,-16.42,97,100,2.02,RU,1707081631
435,taoyuan city,24.9937,121.297,19.43,88,75,1.03,TW,1707081915
436,havre,49.5833,0.3333,10.67,93,100,6.17,FR,1707081915
437,lae,-6.7221,146.9847,26.37,80,98,3.11,PG,1707081785
438,chinsali,-10.5414,32.0816,18.17,94,90,0.74,ZM,1707081915
439,monrovia,6.3005,-10.7969,27.87,86,96,3.12,LR,1707081915
440,nova sintra,14.8667,-24.7167,21.27,71,0,4.04,CV,1707081657
441,muana,-1.5283,-49.2167,27.5,81,18,2.52,BR,1707081915
442,tazacorte,28.629,-17.9293,18.97,25,0,4.92,ES,1707081719
443,luanda,-8.8368,13.2343,28.0,78,0,2.57,AO,1707081916
444,mahina,-17.5065,-149.489,30.87,66,75,6.17,PF,1707081916
445,krasnovishersk,60.4078,57.082,-16.53,93,95,1.84,RU,1707081916
446,ambodifotatra,-16.9833,49.85,26.41,81,100,3.91,MG,1707081916
447,zhob,31.3411,69.4481,4.24,40,0,1.96,PK,1707081916
448,chum phae,16.5443,102.0992,20.34,43,0,1.56,TH,1707081916
449,puente nacional,5.8774,-73.6781,20.99,89,100,0.91,CO,1707081917
450,hadibu,12.65,54.0333,25.28,73,25,4.81,YE,1707081634
451,pathein,16.7833,94.7333,20.16,63,73,4.03,MM,1707081636
452,kuusamo,65.9667,29.1833,-7.98,86,100,6.17,FI,1707081917
453,chonchi,-42.6128,-73.8092,26.56,34,1,1.36,CL,1707081689
454,pitimbu,-7.4706,-34.8086,29.33,69,0,5.33,BR,1707081917
455,malampaka,-3.1333,33.5333,20.03,85,100,1.55,TZ,1707081917
456,chimbote,-9.0853,-78.5783,27.01,69,100,3.91,PE,1707081917
457,mariinsk,56.2139,87.7472,-2.36,85,100,7.27,RU,1707081670
458,padang,-0.9492,100.3543,25.03,83,99,1.82,ID,1707081918
459,fort stockton,30.894,-102.8793,18.03,14,0,8.23,US,1707081918
460,timimoun,29.2639,0.231,12.71,40,20,5.84,DZ,1707081918
461,prince george,53.9166,-122.753,-1.32,63,0,1.54,CA,1707081918
462,grajewo,53.6473,22.4554,4.13,85,100,11.43,PL,1707081918
463,yichang,30.7144,111.2847,-3.02,94,96,0.39,CN,1707081919
464,ust-tsilma,65.441,52.1498,-20.22,93,44,2.24,RU,1707081919
465,isla del bosque,22.7333,-105.85,24.78,46,0,5.55,MX,1707081919
466,mgandu,-5.95,34.1333,16.71,97,100,1.55,TZ,1707081919
467,yaren,-0.5472,166.916,29.11,76,99,6.78,NR,1707081919
468,cold lake,54.4502,-110.2017,-10.03,62,100,2.06,CA,1707081897
469,niamey,13.5137,2.1098,24.16,9,32,2.57,NE,1707081627
470,brisas de zicatela,15.8369,-97.0419,30.29,58,0,2.57,MX,1707081920
471,fredericksburg,38.3032,-77.4605,12.62,39,0,0.45,US,1707081727
472,altinyayla,39.2725,36.751,-2.89,88,100,2.19,TR,1707081920
473,kiranur,10.5699,78.7868,22.84,91,87,2.8,IN,1707081920
474,saynshand,44.8824,110.1163,-15.27,96,100,2.64,MN,1707081920
475,kumeny,58.1089,49.9161,-9.34,94,100,7.41,RU,1707081920
476,bayganin,48.6947,55.8742,0.51,97,100,11.36,KZ,1707081920
477,inyonga,-6.7167,32.0667,19.19,93,100,0.82,TZ,1707081920
478,nizhniy kuranakh,58.8353,125.4869,-33.61,99,90,1.06,RU,1707081921
479,paso de los toros,-32.8167,-56.5167,36.07,24,44,3.3,UY,1707081921
480,kourou,5.1552,-52.6478,29.03,80,100,3.87,GF,1707081921
481,igarka,67.4667,86.5833,-14.99,96,100,4.22,RU,1707081627
482,horsham,51.064,-0.3272,11.98,79,40,4.12,GB,1707081735
483,okhotsk,59.3833,143.3,-23.28,78,28,6.6,RU,1707081641
484,achinsk,56.2694,90.4993,-5.72,83,100,4.92,RU,1707081921
485,nago,26.5881,127.9761,22.47,88,97,7.44,JP,1707081706
486,nikolayevsk-on-amure,53.1406,140.73,-24.53,99,28,1.78,RU,1707081923
487,darchula,29.8412,80.5287,7.55,80,47,2.34,NP,1707081923
488,mariental,-24.6333,17.9667,28.15,42,66,4.98,NA,1707081674
489,sacaba,20.5833,-89.9833,30.72,43,15,4.97,MX,1707081923
490,fontanelas,38.8472,-9.4372,14.53,82,100,1.86,PT,1707081923
491,midvagur,62.0511,-7.1939,1.46,60,100,4.12,FO,1707081682
492,ilebo,-4.3167,20.5833,22.84,96,99,0.99,CD,1707081923
493,erenhot,43.6475,111.9767,-12.77,97,100,2.42,CN,1707081924
494,fale old settlement,-9.3852,-171.2468,29.37,76,100,11.15,TK,1707081631
495,booneville,34.6582,-88.5667,8.66,95,100,5.09,US,1707081924
496,byron bay,-28.65,153.6167,26.51,68,87,2.86,AU,1707081692
497,jinchang,38.4953,102.1739,-7.68,62,0,1.85,CN,1707081924
498,jaisalmer,26.9147,70.9181,16.85,54,10,2.58,IN,1707081924
499,tongchuanshi,35.0806,109.0897,-5.33,94,99,0.44,CN,1707081924
500,axim,4.8699,-2.2405,27.13,82,85,3.16,GH,1707081872
501,daru,-9.0763,143.2092,26.0,90,100,2.7,PG,1707081719
502,ambovombe,-25.1667,46.0833,23.22,92,100,2.96,MG,1707081712
503,cidade velha,14.9167,-23.6167,23.26,68,0,5.14,CV,1707081925
504,portland,45.5234,-122.6762,14.75,60,20,4.47,US,1707081845
505,markovo,57.3206,107.0881,-20.65,100,93,1.66,RU,1707081633
506,kabalo,-6.05,26.9167,22.26,95,100,0.96,CD,1707081925
507,piti village,13.4626,144.6933,26.49,77,20,5.14,GU,1707081925
508,al bayda',32.7627,21.7551,8.46,87,71,4.41,LY,1707081926
509,safotu,-13.4513,-172.4018,29.17,80,100,9.95,WS,1707081926
510,el idrissia,34.4454,2.5275,9.44,42,0,3.11,DZ,1707081926
511,tondano,1.3038,124.9112,19.05,92,94,0.91,ID,1707081926
512,amahai,-3.3333,128.9167,25.76,84,76,2.48,ID,1707081926
513,nizhneangarsk,55.7833,109.55,-17.22,74,98,1.34,RU,1707081926
514,korla,41.7597,86.1469,-5.5,72,100,2.99,CN,1707081664
515,west bay,19.3667,-81.4167,29.04,80,20,6.69,KY,1707081926
516,soio,-6.1349,12.3689,26.98,80,80,3.1,AO,1707081927
517,lauffen am neckar,49.0744,9.1469,10.32,76,100,7.73,DE,1707081927
518,serenje,-13.2325,30.2352,17.83,95,49,1.01,ZM,1707081927
519,severo-yeniseyskiy,60.3725,93.0408,-17.93,98,100,1.76,RU,1707081927
520,george town,5.4112,100.3354,26.96,86,20,1.03,MY,1707081681
521,antratsyt,48.115,39.0913,0.98,93,100,4.37,UA,1707081927
522,kerema,-7.9631,145.7785,24.78,90,99,2.26,PG,1707081927
523,samux,40.7647,46.4085,5.56,60,75,4.12,AZ,1707081928
524,kearney,40.6995,-99.0815,4.31,93,100,6.69,US,1707081928
525,ailuk,10.2197,169.9797,26.26,73,78,7.98,MH,1707081928
526,narasannapeta,18.4167,84.05,21.1,91,0,1.47,IN,1707081686
527,narrabri,-30.3167,149.7833,28.62,68,100,2.68,AU,1707081702
528,seminole,28.7086,-81.2081,23.52,73,40,4.12,US,1707081928
529,kurtamysh,54.9103,64.4319,-9.13,89,100,6.26,RU,1707081928
530,piracuruca,-3.9281,-41.7092,32.86,40,83,2.73,BR,1707081928
531,pinotepa nacional,16.3167,-98.0167,31.05,32,1,5.84,MX,1707081928
532,belyy yar,53.6039,91.3903,-16.06,92,100,0.0,RU,1707081846
533,sao jose da coroa grande,-8.8978,-35.1478,27.4,76,38,3.39,BR,1707081929
534,sonqor,34.7837,47.6004,-4.1,91,32,2.14,IR,1707081929
535,fort mcmurray,56.7268,-111.381,-4.23,46,0,5.14,CA,1707081663
536,alamosa,37.4695,-105.87,1.99,51,0,4.63,US,1707081929
537,bardai,11.65,7.2333,19.84,16,74,5.27,NG,1707081929
538,morondava,-20.2833,44.2833,25.47,85,100,3.75,MG,1707081929
539,kailua-kona,19.6406,-155.9956,25.28,70,75,3.6,US,1707081895
540,grande prairie,55.1667,-118.8027,-6.9,68,40,1.03,CA,1707081699
541,zaraysk,54.7653,38.8836,-0.39,98,88,7.09,RU,1707081930
542,quellon,-43.1167,-73.6167,19.19,49,0,2.19,CL,1707081670
543,sao vicente,-23.9631,-46.3919,26.1,56,0,1.54,BR,1707081634
544,kenai,60.5544,-151.2583,-9.36,87,100,3.6,US,1707081747
545,buka,40.8108,69.1986,2.65,68,100,0.83,UZ,1707081930
546,selimpasa,41.0558,28.379,9.97,82,90,4.77,TR,1707081930
547,asau,46.4333,26.4,7.51,79,100,8.2,RO,1707081930
548,kamaishi,39.2667,141.8833,-0.41,64,43,2.41,JP,1707081931
549,guerrero negro,27.9769,-114.0611,19.46,46,0,3.36,MX,1707081676
550,meulaboh,4.1363,96.1285,24.93,88,98,0.04,ID,1707081931
551,hede,33.7681,120.2517,-4.22,97,94,4.39,CN,1707081931
552,ghazni,33.5536,68.4269,-8.39,80,19,1.39,AF,1707081931
553,bazarnyy karabulak,52.2683,46.4144,0.33,82,100,7.99,RU,1707081931
554,tual,-5.6667,132.75,28.87,76,100,5.57,ID,1707081659
555,san jose del guaviare,2.5729,-72.6459,27.85,80,92,1.91,CO,1707081931
556,skidaway island,31.9349,-81.0471,12.25,80,100,9.1,US,1707081931
557,zadawa,11.4496,10.3672,21.24,20,70,6.14,NG,1707081932
558,andergrove,-21.0833,149.1833,28.14,65,99,1.34,AU,1707081932
559,severoural'sk,60.1533,59.952,-19.12,98,100,2.15,RU,1707081932
560,ar raqqah,35.95,39.0167,9.21,85,97,1.53,SY,1707081932
561,zemio,5.0314,25.1361,24.45,30,63,2.13,CF,1707081932
562,ulanhot,46.0833,122.0833,-16.59,81,100,0.96,CN,1707081932
563,monee,41.42,-87.7417,10.03,60,66,5.41,US,1707081932
564,mahibadhoo,3.7833,72.9667,27.92,73,95,8.03,MV,1707081933
565,opuwo,-18.0607,13.84,22.91,72,96,1.58,NA,1707081689
566,new norfolk,-42.7826,147.0587,14.4,85,35,1.12,AU,1707081635
567,thongwa,16.7619,96.5278,23.09,46,4,1.54,MM,1707081632
568,mapimi,25.8167,-103.85,20.52,14,0,5.87,MX,1707081933
569,lianshan,40.7643,120.8533,-5.33,44,100,5.12,CN,1707081933
570,les anglais,18.3054,-74.2197,26.7,71,19,2.62,HT,1707081933
571,thurso,58.5927,-3.5259,6.03,90,100,8.16,GB,1707081933
572,kirakira,-10.4544,161.9205,28.05,83,67,4.79,SB,1707081709
573,kapa'a,22.0752,-159.319,24.99,66,40,9.77,US,1707081642
574,kuching,1.55,110.3333,27.24,94,40,1.54,MY,1707081934
